[{"nom":"Grand Resto de Chine","numero":"+261 33 83 594 63","adresse":"Lalana Rasamuol Maurice, Antananarivo, Madagascar","specialite":"Asian restaurant","contact":null,"image":"https://lh3.googleusercontent.com/p/AF1QipN7yiBNA30KEizkiXJxu3ZUeiYA7jnqdu52kJMZ=w163-h92-k-no","lat":-18.9141849,"lng":47.5384142},{"nom":"La Fleur De Sel","numero":"+261 34 12 582 22","adresse":"Antananarivo, Madagascar","specialite":"Mandarin restaurant","contact":"http://www.lafleurdesel.mg/","image":"https://lh3.googleusercontent.com/p/AF1QipOQOGgQ0ObZ5MrCEVpNp5mKBTcQCh0GEM77h5YL=w158-h92-k-no","lat":-18.8715948,"lng":47.5426065},{"nom":"O Loft Chinois","numero":null,"adresse":"4G39+2J7, Antananarivo, Madagascar","specialite":"Restaurant","contact":null,"image":"https://lh3.googleusercontent.com/p/AF1QipNHPeTD3gUVFTfRHfj-ncIHDw58513AyhFo_hRm=w122-h92-k-no","lat":-18.8974503,"lng":47.5190589},{"nom":"Restaurant L'EURASIE - Ankorondrano","numero":"+261 38 51 944 37","adresse":"Face à l'hôtel Ibis - Ankorondrano, Antananarivo 101, Madagascar","specialite":"Chinese restaurant","contact":null,"image":"https://lh3.googleusercontent.com/p/AF1QipOtq5x8wMn4L97OL30vkqmmLhgHeeJskz-a6ipY=w163-h92-k-no","lat":-18.878854999999998,"lng":47.521268299999996},{"nom":"Le Grand Orient","numero":"+261 20 22 202 88","adresse":"Rue Andriantsihoarana Ratsimbazafy, Antananarivo 101, Madagascar","specialite":"Restaurant","contact":"https://facebook.com/pages/Le-Grand-Orient-Ivandry/376251039171562","image":"https://lh3.googleusercontent.com/p/AF1QipNfdthhKgfEkk6YKFWRam1O6ptNiH2m1M3uGwE1=w163-h92-k-no","lat":-18.8698272,"lng":47.5317034},{"nom":"l'Orient Asian Fusion Restaurant","numero":"+261 34 36 788 88","adresse":"Madagascar, Antananarivo, Lalana Rainandriamampandry, 邮政编码: 101","specialite":"Pan-Asian restaurant","contact":null,"image":"https://lh3.googleusercontent.com/p/AF1QipMEtu4ta7YgG-CL3VT7miGqijPe1Too2f9jrSaP=w122-h92-k-no","lat":-18.907249399999998,"lng":47.5280373},{"nom":"Restaurant Fong Mei","numero":"+261 33 25 571 99","adresse":"4GHM+JMX, Rue Andriantsihoarana Ratsimbazafy, Antananarivo, Madagascar","specialite":"Chinese restaurant","contact":null,"image":"https://lh3.googleusercontent.com/p/AF1QipMHTDjwC8dQWwY9xijz_dCP8HP5_Aut5zKHJwoz=w189-h92-k-no","lat":-18.870893799999997,"lng":47.5342498},{"nom":"Zen Garden","numero":"+261 32 05 135 03","adresse":"II M 38 F Androhibe Antananarivo Antananarivo, 101, Madagascar","specialite":"Chinese restaurant","contact":null,"image":"https://lh3.googleusercontent.com/p/AF1QipN43283kmuuBmRt07-4IJshNImNdRb7Y6BpnpX1=w122-h92-k-no","lat":-18.865723499999998,"lng":47.5428709},{"nom":"凤城 Soleil","numero":"+261 33 11 336 28","adresse":"Lot IVK 89 bis Anosivavaka Ambohimanarina, Antananarivo 101, Madagascar","specialite":"Chinese restaurant","contact":null,"image":"https://lh3.googleusercontent.com/p/AF1QipNV5IfdfmLcw6xZl_UC9xIgmSXKSFaCReLf3JDq=w415-h92-k-no","lat":-18.8729457,"lng":47.507969499999994},{"nom":"Restaurant 19° C","numero":"+261 34 02 818 66","adresse":"4G9C+8Q2, Galana service station, Rue Ravoninahitriniarivo Ankorondrano, Antananarivo, Madagascar, across the street from, Rue Ravoninahitriniarivo, Antananarivo, Madagascar","specialite":"Chinese restaurant","contact":null,"image":null,"lat":-18.8817394,"lng":47.5219035},{"nom":"La Jonquille","numero":"+261 20 22 206 37","adresse":"Antananarivo 101, Madagascar","specialite":"Restaurant","contact":null,"image":"https://lh3.googleusercontent.com/p/AF1QipMsJSKqkvUuNj8X2kClQStRgF9MnhWDeNbiCFA4=w189-h92-k-no","lat":-18.909325799999998,"lng":47.536889599999995},{"nom":"Dun Huang","numero":null,"adresse":"42 Arabe Andrinampoinimerina, Antananarivo 101, Madagascar","specialite":"Chinese restaurant","contact":null,"image":"https://lh3.googleusercontent.com/p/AF1QipOrcLrnddjVPe8CMEGLkJqhV5o2dOq01yCnhGaf=w163-h92-k-no","lat":-18.905614,"lng":47.524070699999996},{"nom":"Hirondelle \"燕子\" Chinese FOOD","numero":"+261 34 11 166 78","adresse":"Lalana Dama-Ntsoha Razatintsalama Jean-Baptiste, Antananarivo 101, Madagascar","specialite":"Hot pot restaurant","contact":null,"image":"https://lh3.googleusercontent.com/p/AF1QipNHzp5v6Ex6FX618m8n7nqqLkxDRkZzRnBByTYh=w122-h92-k-no","lat":-18.9174137,"lng":47.5366284},{"nom":"Restaurant La Belle Ville","numero":"+261 34 03 244 36","adresse":"3GQP+WJP, Rue Razafindralombo Pierre, Antananarivo, Madagascar","specialite":"Chinese restaurant","contact":null,"image":"https://lh3.googleusercontent.com/p/AF1QipNDWX5a1IpH3BSryRA9ZpB_u7tet_SNh7nS-Jqt=w189-h92-k-no","lat":-18.9101641,"lng":47.5365779},{"nom":"Dragon Royal Restaurant IVATO","numero":"+261 38 12 579 79","adresse":"5FQF+WHH, Antananarivo, Madagascar","specialite":"Asian restaurant","contact":null,"image":"https://lh3.googleusercontent.com/p/AF1QipOtJoCztcg9BWvy5KjmUpPcbjQNaYS4J2871A2s=w80-h106-k-no","lat":-18.8101926,"lng":47.4739989},{"nom":"Lotus Blanc Restaurant 荷花酒店","numero":null,"adresse":"LOT II W 23 B, Antananarivo 101, Madagascar","specialite":"Chinese restaurant","contact":null,"image":"https://lh3.googleusercontent.com/p/AF1QipM8NDE-zVjI5XzZluG0roZbgxqkJDnGuLV5Zz1j=w122-h92-k-no","lat":-18.9134037,"lng":47.537774399999996},{"nom":"Sam Voky","numero":"+261 34 18 685 38","adresse":"3GP8+GGF, Antananarivo, Madagascar","specialite":"Chinese restaurant","contact":null,"image":"https://lh3.googleusercontent.com/p/AF1QipPZoKauAqQTR48C_qojso2yxD3GWCJZjirXq69p=w122-h92-k-no","lat":-18.9136965,"lng":47.5162832},{"nom":"Restaurant Shi Fu","numero":"+261 34 51 483 56","adresse":"2G9W+VQ, Antananarivo, Madagascar","specialite":"Chinese restaurant","contact":"https://www.facebook.com/Restaurant-Sh%C4%AB-fu-107393411858712/","image":"https://lh3.googleusercontent.com/p/AF1QipNZ-YPeesX1jV6Qp2iykqPsCvCA-GofXq0Ztsdr=w163-h92-k-no","lat":-18.989533899999998,"lng":47.5392912},{"nom":"吕府私房菜（KTV）","numero":"+261 38 82 066 66","adresse":"Madagascar, Antananarivo, AUTOREX, Amitie Fandian","specialite":"Chinese restaurant","contact":null,"image":"https://lh3.googleusercontent.com/p/AF1QipM07B6izo0ribTcOx106yL2JfPX64vAli2EbcDU=w84-h92-k-no","lat":-18.910683199999998,"lng":47.503318},{"nom":"Kaizen Restaurant","numero":null,"adresse":"3GPR+F3J, Lalana Vvs, Antananarivo, Madagascar","specialite":"Chinese restaurant","contact":null,"image":"https://lh3.googleusercontent.com/p/AF1QipMUA53dmxBRpysz0hpem8r6_1mflTo6bSYFPF2D=w80-h106-k-no","lat":-18.9137837,"lng":47.5401532}]